Time,Longitude,Latitude,Altitude,Roll (deg),Pitch (deg),Yaw (deg)
0.00,-116.68408151,32.72695273,274.00,0.00000,0.00000,0.00000
0.00,-116.68408151,32.72695273,274.00,0.00000,0.00000,0.00000
0.00,-116.68867315,32.72677306,104.00,0.00000,0.00000,0.00000
0.00,-116.68867315,32.72677306,104.00,0.00000,0.00000,0.00000
0.00,-116.68867315,32.72677306,104.00,0.00000,0.00000,0.00000
0.00,-116.67991699,32.72856969,124.00,0.00000,0.00000,0.00000
0.00,-116.67991699,32.72856969,124.00,0.00000,0.00000,0.00000
0.00,-116.67991699,32.72856969,124.00,0.00000,0.00000,0.00000
0.00,-116.67991699,32.72856969,124.00,0.00000,0.00000,0.00000
0.00,-116.68312046,32.72883918,-306.00,0.00000,0.00000,0.00000
0.00,-116.68312046,32.72883918,-306.00,0.00000,0.00000,0.00000
0.00,-116.68312046,32.72883918,-306.00,0.00000,0.00000,0.00000
0.00,-116.68312046,32.72883918,-306.00,0.00000,0.00000,0.00000
0.00,-116.68312046,32.72883918,-306.00,0.00000,0.00000,0.00000
0.00,-116.68141195,32.72650357,384.00,0.00000,0.00000,0.00000
0.00,-116.68141195,32.72650357,384.00,0.00000,0.00000,0.00000
0.00,-116.68141195,32.72650357,384.00,0.00000,0.00000,0.00000
0.00,-116.68141195,32.72650357,384.00,0.00000,0.00000,0.00000
0.00,-116.68141195,32.72650357,384.00,0.00000,0.00000,0.00000
0.00,-116.68141195,32.72650357,384.00,0.00000,0.00000,0.00000
0.10,-116.68429507,32.72695273,284.00,0.00000,0.00000,0.00000
0.10,-116.68429507,32.72695273,284.00,0.00000,0.00000,0.00000
0.10,-116.68429507,32.72695273,284.00,0.00000,0.00000,0.00000
0.10,-116.68429507,32.72695273,284.00,0.00000,0.00000,0.00000
0.10,-116.68429507,32.72695273,284.00,0.00000,0.00000,0.00000
0.10,-116.68429507,32.72695273,284.00,0.00000,0.00000,0.00000
0.10,-116.68888671,32.72668323,114.00,0.00000,0.00000,0.00000
0.10,-116.68888671,32.72668323,114.00,0.00000,0.00000,0.00000
0.10,-116.68888671,32.72668323,114.00,0.00000,0.00000,0.00000
0.10,-116.68888671,32.72668323,114.00,0.00000,0.00000,0.00000
0.10,-116.68888671,32.72668323,114.00,0.00000,0.00000,0.00000
0.10,-116.68888671,32.72668323,114.00,0.00000,0.00000,0.00000
0.10,-116.68013056,32.72856969,124.00,0.00000,0.00000,0.00000
0.10,-116.68013056,32.72856969,124.00,0.00000,0.00000,0.00000
0.10,-116.68013056,32.72856969,124.00,0.00000,0.00000,0.00000
0.10,-116.68013056,32.72856969,124.00,0.00000,0.00000,0.00000
0.10,-116.68013056,32.72856969,124.00,0.00000,0.00000,0.00000
0.10,-116.68013056,32.72856969,124.00,0.00000,0.00000,0.00000
0.10,-116.68322725,32.72865952,-286.00,0.00000,0.00000,0.00000
0.10,-116.68322725,32.72865952,-286.00,0.00000,0.00000,0.00000
0.10,-116.68322725,32.72865952,-286.00,0.00000,0.00000,0.00000
0.10,-116.68322725,32.72865952,-286.00,0.00000,0.00000,0.00000
0.10,-116.68322725,32.72865952,-286.00,0.00000,0.00000,0.00000
0.10,-116.68322725,32.72865952,-286.00,0.00000,0.00000,0.00000
0.10,-116.68151873,32.72650357,394.00,0.00000,0.00000,0.00000
0.10,-116.68151873,32.72650357,394.00,0.00000,0.00000,0.00000
0.10,-116.68151873,32.72650357,394.00,0.00000,0.00000,0.00000
0.10,-116.68151873,32.72650357,394.00,0.00000,0.00000,0.00000
0.10,-116.68151873,32.72650357,394.00,0.00000,0.00000,0.00000
0.10,-116.68151873,32.72650357,394.00,0.00000,0.00000,0.00000
0.20,-116.68440185,32.72704256,294.00,0.00000,0.00000,0.00000
0.20,-116.68440185,32.72704256,294.00,0.00000,0.00000,0.00000
0.20,-116.68440185,32.72704256,294.00,0.00000,0.00000,0.00000
0.20,-116.68440185,32.72704256,294.00,0.00000,0.00000,0.00000
0.20,-116.68440185,32.72704256,294.00,0.00000,0.00000,0.00000
0.20,-116.68440185,32.72704256,294.00,0.00000,0.00000,0.00000
0.20,-116.68899350,32.72659340,124.00,0.00000,0.00000,0.00000
0.20,-116.68899350,32.72659340,124.00,0.00000,0.00000,0.00000
0.20,-116.68899350,32.72659340,124.00,0.00000,0.00000,0.00000
0.20,-116.68899350,32.72659340,124.00,0.00000,0.00000,0.00000
0.20,-116.68899350,32.72659340,124.00,0.00000,0.00000,0.00000
0.20,-116.68899350,32.72659340,124.00,0.00000,0.00000,0.00000
0.20,-116.68034412,32.72856969,124.00,0.00000,0.00000,0.00000
0.20,-116.68034412,32.72856969,124.00,0.00000,0.00000,0.00000
0.20,-116.68034412,32.72856969,124.00,0.00000,0.00000,0.00000
0.20,-116.68034412,32.72856969,124.00,0.00000,0.00000,0.00000
0.20,-116.68034412,32.72856969,124.00,0.00000,0.00000,0.00000
0.20,-116.68034412,32.72856969,124.00,0.00000,0.00000,0.00000
0.20,-116.68344081,32.72847986,-266.00,0.00000,0.00000,0.00000
0.20,-116.68344081,32.72847986,-266.00,0.00000,0.00000,0.00000
0.20,-116.68344081,32.72847986,-266.00,0.00000,0.00000,0.00000
0.20,-116.68344081,32.72847986,-266.00,0.00000,0.00000,0.00000
0.20,-116.68344081,32.72847986,-266.00,0.00000,0.00000,0.00000
0.20,-116.68344081,32.72847986,-266.00,0.00000,0.00000,0.00000
0.20,-116.68162551,32.72650357,414.00,0.00000,0.00000,0.00000
0.20,-116.68162551,32.72650357,414.00,0.00000,0.00000,0.00000
0.20,-116.68162551,32.72650357,414.00,0.00000,0.00000,0.00000
0.20,-116.68162551,32.72650357,414.00,0.00000,0.00000,0.00000
0.20,-116.68162551,32.72650357,414.00,0.00000,0.00000,0.00000
0.20,-116.68162551,32.72650357,414.00,0.00000,0.00000,0.00000
0.30,-116.68450864,32.72704256,294.00,0.00000,0.00000,0.00000
0.30,-116.68450864,32.72704256,294.00,0.00000,0.00000,0.00000
0.30,-116.68450864,32.72704256,294.00,0.00000,0.00000,0.00000
0.30,-116.68450864,32.72704256,294.00,0.00000,0.00000,0.00000
0.30,-116.68450864,32.72704256,294.00,0.00000,0.00000,0.00000
0.30,-116.68450864,32.72704256,294.00,0.00000,0.00000,0.00000
0.30,-116.68910028,32.72650357,144.00,0.00000,0.00000,0.00000
0.30,-116.68910028,32.72650357,144.00,0.00000,0.00000,0.00000
0.30,-116.68910028,32.72650357,144.00,0.00000,0.00000,0.00000
0.30,-116.68910028,32.72650357,144.00,0.00000,0.00000,0.00000
0.30,-116.68910028,32.72650357,144.00,0.00000,0.00000,0.00000
0.30,-116.68910028,32.72650357,144.00,0.00000,0.00000,0.00000
0.30,-116.68045090,32.72856969,114.00,0.00000,0.00000,0.00000
0.30,-116.68045090,32.72856969,114.00,0.00000,0.00000,0.00000
0.30,-116.68045090,32.72856969,114.00,0.00000,0.00000,0.00000
0.30,-116.68045090,32.72856969,114.00,0.00000,0.00000,0.00000
0.30,-116.68045090,32.72856969,114.00,0.00000,0.00000,0.00000
0.30,-116.68045090,32.72856969,114.00,0.00000,0.00000,0.00000
0.30,-116.68354759,32.72839002,-246.00,0.00000,0.00000,0.00000
0.30,-116.68354759,32.72839002,-246.00,0.00000,0.00000,0.00000
0.30,-116.68354759,32.72839002,-246.00,0.00000,0.00000,0.00000
0.30,-116.68354759,32.72839002,-246.00,0.00000,0.00000,0.00000
0.30,-116.68354759,32.72839002,-246.00,0.00000,0.00000,0.00000
0.30,-116.68354759,32.72839002,-246.00,0.00000,0.00000,0.00000
0.30,-116.68183908,32.72650357,424.00,0.00000,0.00000,0.00000
0.30,-116.68183908,32.72650357,424.00,0.00000,0.00000,0.00000
0.30,-116.68183908,32.72650357,424.00,0.00000,0.00000,0.00000
0.30,-116.68183908,32.72650357,424.00,0.00000,0.00000,0.00000
0.30,-116.68183908,32.72650357,424.00,0.00000,0.00000,0.00000
0.30,-116.68183908,32.72650357,424.00,0.00000,0.00000,0.00000
0.40,-116.68461542,32.72704256,304.00,0.00000,0.00000,0.00000
0.40,-116.68461542,32.72704256,304.00,0.00000,0.00000,0.00000
0.40,-116.68461542,32.72704256,304.00,0.00000,0.00000,0.00000
0.40,-116.68461542,32.72704256,304.00,0.00000,0.00000,0.00000
0.40,-116.68461542,32.72704256,304.00,0.00000,0.00000,0.00000
0.40,-116.68461542,32.72704256,304.00,0.00000,0.00000,0.00000
0.40,-116.68920706,32.72641374,154.00,0.00000,0.00000,0.00000
0.40,-116.68920706,32.72641374,154.00,0.00000,0.00000,0.00000
0.40,-116.68920706,32.72641374,154.00,0.00000,0.00000,0.00000
0.40,-116.68920706,32.72641374,154.00,0.00000,0.00000,0.00000
0.40,-116.68920706,32.72641374,154.00,0.00000,0.00000,0.00000
0.40,-116.68920706,32.72641374,154.00,0.00000,0.00000,0.00000
0.40,-116.68066447,32.72856969,114.00,0.00000,0.00000,0.00000
0.40,-116.68066447,32.72856969,114.00,0.00000,0.00000,0.00000
0.40,-116.68066447,32.72856969,114.00,0.00000,0.00000,0.00000
0.40,-116.68066447,32.72856969,114.00,0.00000,0.00000,0.00000
0.40,-116.68066447,32.72856969,114.00,0.00000,0.00000,0.00000
0.40,-116.68066447,32.72856969,114.00,0.00000,0.00000,0.00000
0.40,-116.68376116,32.72821036,-226.00,0.00000,0.00000,0.00000
0.40,-116.68376116,32.72821036,-226.00,0.00000,0.00000,0.00000
0.40,-116.68376116,32.72821036,-226.00,0.00000,0.00000,0.00000
0.40,-116.68376116,32.72821036,-226.00,0.00000,0.00000,0.00000
0.40,-116.68376116,32.72821036,-226.00,0.00000,0.00000,0.00000
0.40,-116.68376116,32.72821036,-226.00,0.00000,0.00000,0.00000
0.40,-116.68194586,32.72641374,434.00,0.00000,0.00000,0.00000
0.40,-116.68194586,32.72641374,434.00,0.00000,0.00000,0.00000
0.40,-116.68194586,32.72641374,434.00,0.00000,0.00000,0.00000
0.40,-116.68194586,32.72641374,434.00,0.00000,0.00000,0.00000
0.40,-116.68194586,32.72641374,434.00,0.00000,0.00000,0.00000
0.40,-116.68194586,32.72641374,434.00,0.00000,0.00000,0.00000
0.50,-116.68472220,32.72713239,314.00,0.00000,0.00000,0.00000
0.50,-116.68472220,32.72713239,314.00,0.00000,0.00000,0.00000
0.50,-116.68472220,32.72713239,314.00,0.00000,0.00000,0.00000
0.50,-116.68472220,32.72713239,314.00,0.00000,0.00000,0.00000
0.50,-116.68472220,32.72713239,314.00,0.00000,0.00000,0.00000
0.50,-116.68472220,32.72713239,314.00,0.00000,0.00000,0.00000
0.50,-116.68942063,32.72632391,164.00,0.00000,0.00000,0.00000
0.50,-116.68942063,32.72632391,164.00,0.00000,0.00000,0.00000
0.50,-116.68942063,32.72632391,164.00,0.00000,0.00000,0.00000
0.50,-116.68942063,32.72632391,164.00,0.00000,0.00000,0.00000
0.50,-116.68942063,32.72632391,164.00,0.00000,0.00000,0.00000
0.50,-116.68942063,32.72632391,164.00,0.00000,0.00000,0.00000
0.50,-116.68077125,32.72856969,114.00,0.00000,0.00000,0.00000
0.50,-116.68077125,32.72856969,114.00,0.00000,0.00000,0.00000
0.50,-116.68077125,32.72856969,114.00,0.00000,0.00000,0.00000
0.50,-116.68077125,32.72856969,114.00,0.00000,0.00000,0.00000
0.50,-116.68077125,32.72856969,114.00,0.00000,0.00000,0.00000
0.50,-116.68077125,32.72856969,114.00,0.00000,0.00000,0.00000
0.50,-116.68386794,32.72803070,-206.00,0.00000,0.00000,0.00000
0.50,-116.68386794,32.72803070,-206.00,0.00000,0.00000,0.00000
0.50,-116.68386794,32.72803070,-206.00,0.00000,0.00000,0.00000
0.50,-116.68386794,32.72803070,-206.00,0.00000,0.00000,0.00000
0.50,-116.68386794,32.72803070,-206.00,0.00000,0.00000,0.00000
0.50,-116.68386794,32.72803070,-206.00,0.00000,0.00000,0.00000
0.50,-116.68205264,32.72641374,454.00,0.00000,0.00000,0.00000
0.50,-116.68205264,32.72641374,454.00,0.00000,0.00000,0.00000
0.50,-116.68205264,32.72641374,454.00,0.00000,0.00000,0.00000
0.50,-116.68205264,32.72641374,454.00,0.00000,0.00000,0.00000
0.50,-116.68205264,32.72641374,454.00,0.00000,0.00000,0.00000
0.50,-116.68205264,32.72641374,454.00,0.00000,0.00000,0.00000
0.60,-116.68482898,32.72713239,314.00,0.00000,0.00000,0.00000
0.60,-116.68482898,32.72713239,314.00,0.00000,0.00000,0.00000
0.60,-116.68482898,32.72713239,314.00,0.00000,0.00000,0.00000
0.60,-116.68482898,32.72713239,314.00,0.00000,0.00000,0.00000
0.60,-116.68482898,32.72713239,314.00,0.00000,0.00000,0.00000
0.60,-116.68482898,32.72713239,314.00,0.00000,0.00000,0.00000
0.60,-116.68952741,32.72623408,174.00,0.00000,0.00000,0.00000
0.60,-116.68952741,32.72623408,174.00,0.00000,0.00000,0.00000
0.60,-116.68952741,32.72623408,174.00,0.00000,0.00000,0.00000
0.60,-116.68952741,32.72623408,174.00,0.00000,0.00000,0.00000
0.60,-116.68952741,32.72623408,174.00,0.00000,0.00000,0.00000
0.60,-116.68952741,32.72623408,174.00,0.00000,0.00000,0.00000
0.60,-116.68098482,32.72856969,114.00,0.00000,0.00000,0.00000
0.60,-116.68098482,32.72856969,114.00,0.00000,0.00000,0.00000
0.60,-116.68098482,32.72856969,114.00,0.00000,0.00000,0.00000
0.60,-116.68098482,32.72856969,114.00,0.00000,0.00000,0.00000
0.60,-116.68098482,32.72856969,114.00,0.00000,0.00000,0.00000
0.60,-116.68098482,32.72856969,114.00,0.00000,0.00000,0.00000
0.60,-116.68408151,32.72785104,-186.00,0.00000,0.00000,0.00000
0.60,-116.68408151,32.72785104,-186.00,0.00000,0.00000,0.00000
0.60,-116.68408151,32.72785104,-186.00,0.00000,0.00000,0.00000
0.60,-116.68408151,32.72785104,-186.00,0.00000,0.00000,0.00000
0.60,-116.68408151,32.72785104,-186.00,0.00000,0.00000,0.00000
0.60,-116.68408151,32.72785104,-186.00,0.00000,0.00000,0.00000
0.60,-116.68226620,32.72641374,464.00,0.00000,0.00000,0.00000
0.60,-116.68226620,32.72641374,464.00,0.00000,0.00000,0.00000
0.60,-116.68226620,32.72641374,464.00,0.00000,0.00000,0.00000
0.60,-116.68226620,32.72641374,464.00,0.00000,0.00000,0.00000
0.60,-116.68226620,32.72641374,464.00,0.00000,0.00000,0.00000
0.60,-116.68226620,32.72641374,464.00,0.00000,0.00000,0.00000
0.70,-116.68493576,32.72722222,324.00,0.00000,0.00000,0.00000
0.70,-116.68493576,32.72722222,324.00,0.00000,0.00000,0.00000
0.70,-116.68493576,32.72722222,324.00,0.00000,0.00000,0.00000
0.70,-116.68493576,32.72722222,324.00,0.00000,0.00000,0.00000
0.70,-116.68493576,32.72722222,324.00,0.00000,0.00000,0.00000
0.70,-116.68493576,32.72722222,324.00,0.00000,0.00000,0.00000
0.70,-116.68963419,32.72614425,184.00,0.00000,0.00000,0.00000
0.70,-116.68963419,32.72614425,184.00,0.00000,0.00000,0.00000
0.70,-116.68963419,32.72614425,184.00,0.00000,0.00000,0.00000
0.70,-116.68963419,32.72614425,184.00,0.00000,0.00000,0.00000
0.70,-116.68963419,32.72614425,184.00,0.00000,0.00000,0.00000
0.70,-116.68963419,32.72614425,184.00,0.00000,0.00000,0.00000
0.70,-116.68119838,32.72856969,104.00,0.00000,0.00000,0.00000
0.70,-116.68119838,32.72856969,104.00,0.00000,0.00000,0.00000
0.70,-116.68119838,32.72856969,104.00,0.00000,0.00000,0.00000
0.70,-116.68119838,32.72856969,104.00,0.00000,0.00000,0.00000
0.70,-116.68119838,32.72856969,104.00,0.00000,0.00000,0.00000
0.70,-116.68119838,32.72856969,104.00,0.00000,0.00000,0.00000
0.70,-116.68418829,32.72767138,-166.00,0.00000,0.00000,0.00000
0.70,-116.68418829,32.72767138,-166.00,0.00000,0.00000,0.00000
0.70,-116.68418829,32.72767138,-166.00,0.00000,0.00000,0.00000
0.70,-116.68418829,32.72767138,-166.00,0.00000,0.00000,0.00000
0.70,-116.68418829,32.72767138,-166.00,0.00000,0.00000,0.00000
0.70,-116.68418829,32.72767138,-166.00,0.00000,0.00000,0.00000
0.70,-116.68237299,32.72641374,474.00,0.00000,0.00000,0.00000
0.70,-116.68237299,32.72641374,474.00,0.00000,0.00000,0.00000
0.70,-116.68237299,32.72641374,474.00,0.00000,0.00000,0.00000
0.70,-116.68237299,32.72641374,474.00,0.00000,0.00000,0.00000
0.70,-116.68237299,32.72641374,474.00,0.00000,0.00000,0.00000
0.70,-116.68237299,32.72641374,474.00,0.00000,0.00000,0.00000
0.80,-116.68504255,32.72722222,324.00,0.00000,0.00000,0.00000
0.80,-116.68504255,32.72722222,324.00,0.00000,0.00000,0.00000
0.80,-116.68504255,32.72722222,324.00,0.00000,0.00000,0.00000
0.80,-116.68504255,32.72722222,324.00,0.00000,0.00000,0.00000
0.80,-116.68504255,32.72722222,324.00,0.00000,0.00000,0.00000
0.80,-116.68504255,32.72722222,324.00,0.00000,0.00000,0.00000
0.80,-116.68974097,32.72605442,194.00,0.00000,0.00000,0.00000
0.80,-116.68974097,32.72605442,194.00,0.00000,0.00000,0.00000
0.80,-116.68974097,32.72605442,194.00,0.00000,0.00000,0.00000
0.80,-116.68974097,32.72605442,194.00,0.00000,0.00000,0.00000
0.80,-116.68974097,32.72605442,194.00,0.00000,0.00000,0.00000
0.80,-116.68974097,32.72605442,194.00,0.00000,0.00000,0.00000
0.80,-116.68130516,32.72856969,104.00,0.00000,0.00000,0.00000
0.80,-116.68130516,32.72856969,104.00,0.00000,0.00000,0.00000
0.80,-116.68130516,32.72856969,104.00,0.00000,0.00000,0.00000
0.80,-116.68130516,32.72856969,104.00,0.00000,0.00000,0.00000
0.80,-116.68130516,32.72856969,104.00,0.00000,0.00000,0.00000
0.80,-116.68130516,32.72856969,104.00,0.00000,0.00000,0.00000
0.80,-116.68440185,32.72749171,-146.00,0.00000,0.00000,0.00000
0.80,-116.68440185,32.72749171,-146.00,0.00000,0.00000,0.00000
0.80,-116.68440185,32.72749171,-146.00,0.00000,0.00000,0.00000
0.80,-116.68440185,32.72749171,-146.00,0.00000,0.00000,0.00000
0.80,-116.68440185,32.72749171,-146.00,0.00000,0.00000,0.00000
0.80,-116.68440185,32.72749171,-146.00,0.00000,0.00000,0.00000
0.80,-116.68247977,32.72641374,494.00,0.00000,0.00000,0.00000
0.80,-116.68247977,32.72641374,494.00,0.00000,0.00000,0.00000
0.80,-116.68247977,32.72641374,494.00,0.00000,0.00000,0.00000
0.80,-116.68247977,32.72641374,494.00,0.00000,0.00000,0.00000
0.80,-116.68247977,32.72641374,494.00,0.00000,0.00000,0.00000
0.80,-116.68247977,32.72641374,494.00,0.00000,0.00000,0.00000
0.90,-116.68514933,32.72722222,334.00,0.00000,0.00000,0.00000
0.90,-116.68514933,32.72722222,334.00,0.00000,0.00000,0.00000
0.90,-116.68514933,32.72722222,334.00,0.00000,0.00000,0.00000
0.90,-116.68514933,32.72722222,334.00,0.00000,0.00000,0.00000
0.90,-116.68514933,32.72722222,334.00,0.00000,0.00000,0.00000
0.90,-116.68514933,32.72722222,334.00,0.00000,0.00000,0.00000
0.90,-116.68995454,32.72596458,204.00,0.00000,0.00000,0.00000
0.90,-116.68995454,32.72596458,204.00,0.00000,0.00000,0.00000
0.90,-116.68995454,32.72596458,204.00,0.00000,0.00000,0.00000
0.90,-116.68995454,32.72596458,204.00,0.00000,0.00000,0.00000
0.90,-116.68995454,32.72596458,204.00,0.00000,0.00000,0.00000
0.90,-116.68995454,32.72596458,204.00,0.00000,0.00000,0.00000
0.90,-116.68151873,32.72865952,104.00,0.00000,0.00000,0.00000
0.90,-116.68151873,32.72865952,104.00,0.00000,0.00000,0.00000
0.90,-116.68151873,32.72865952,104.00,0.00000,0.00000,0.00000
0.90,-116.68151873,32.72865952,104.00,0.00000,0.00000,0.00000
0.90,-116.68151873,32.72865952,104.00,0.00000,0.00000,0.00000
0.90,-116.68151873,32.72865952,104.00,0.00000,0.00000,0.00000
0.90,-116.68450864,32.72740188,-126.00,0.00000,0.00000,0.00000
0.90,-116.68450864,32.72740188,-126.00,0.00000,0.00000,0.00000
0.90,-116.68450864,32.72740188,-126.00,0.00000,0.00000,0.00000
0.90,-116.68450864,32.72740188,-126.00,0.00000,0.00000,0.00000
0.90,-116.68450864,32.72740188,-126.00,0.00000,0.00000,0.00000
0.90,-116.68450864,32.72740188,-126.00,0.00000,0.00000,0.00000
0.90,-116.68269333,32.72641374,504.00,0.00000,0.00000,0.00000
0.90,-116.68269333,32.72641374,504.00,0.00000,0.00000,0.00000
0.90,-116.68269333,32.72641374,504.00,0.00000,0.00000,0.00000
0.90,-116.68269333,32.72641374,504.00,0.00000,0.00000,0.00000
0.90,-116.68269333,32.72641374,504.00,0.00000,0.00000,0.00000
0.90,-116.68269333,32.72641374,504.00,0.00000,0.00000,0.00000
1.00,-116.68525611,32.72731205,344.00,0.00000,0.00000,0.00000
1.00,-116.68525611,32.72731205,344.00,0.00000,0.00000,0.00000
1.00,-116.68525611,32.72731205,344.00,0.00000,0.00000,0.00000
1.00,-116.68525611,32.72731205,344.00,0.00000,0.00000,0.00000
1.00,-116.68525611,32.72731205,344.00,0.00000,0.00000,0.00000
1.00,-116.68525611,32.72731205,344.00,0.00000,0.00000,0.00000
1.00,-116.69006132,32.72587475,214.00,0.00000,0.00000,0.00000
1.00,-116.69006132,32.72587475,214.00,0.00000,0.00000,0.00000
1.00,-116.69006132,32.72587475,214.00,0.00000,0.00000,0.00000
1.00,-116.69006132,32.72587475,214.00,0.00000,0.00000,0.00000
1.00,-116.69006132,32.72587475,214.00,0.00000,0.00000,0.00000
1.00,-116.69006132,32.72587475,214.00,0.00000,0.00000,0.00000
1.00,-116.68162551,32.72865952,104.00,0.00000,0.00000,0.00000
1.00,-116.68162551,32.72865952,104.00,0.00000,0.00000,0.00000
1.00,-116.68162551,32.72865952,104.00,0.00000,0.00000,0.00000
1.00,-116.68162551,32.72865952,104.00,0.00000,0.00000,0.00000
1.00,-116.68162551,32.72865952,104.00,0.00000,0.00000,0.00000
1.00,-116.68162551,32.72865952,104.00,0.00000,0.00000,0.00000
1.00,-116.68461542,32.72722222,-106.00,0.00000,0.00000,0.00000
1.00,-116.68461542,32.72722222,-106.00,0.00000,0.00000,0.00000
1.00,-116.68461542,32.72722222,-106.00,0.00000,0.00000,0.00000
1.00,-116.68461542,32.72722222,-106.00,0.00000,0.00000,0.00000
1.00,-116.68461542,32.72722222,-106.00,0.00000,0.00000,0.00000
1.00,-116.68461542,32.72722222,-106.00,0.00000,0.00000,0.00000
1.00,-116.68280012,32.72641374,514.00,0.00000,0.00000,0.00000
1.00,-116.68280012,32.72641374,514.00,0.00000,0.00000,0.00000
1.00,-116.68280012,32.72641374,514.00,0.00000,0.00000,0.00000
1.00,-116.68280012,32.72641374,514.00,0.00000,0.00000,0.00000
1.00,-116.68280012,32.72641374,514.00,0.00000,0.00000,0.00000
1.00,-116.68280012,32.72641374,514.00,0.00000,0.00000,0.00000
1.10,-116.68536289,32.72731205,344.00,0.00000,0.00000,0.00000
1.10,-116.68536289,32.72731205,344.00,0.00000,0.00000,0.00000
1.10,-116.68536289,32.72731205,344.00,0.00000,0.00000,0.00000
1.10,-116.68536289,32.72731205,344.00,0.00000,0.00000,0.00000
1.10,-116.68536289,32.72731205,344.00,0.00000,0.00000,0.00000
1.10,-116.68536289,32.72731205,344.00,0.00000,0.00000,0.00000
1.10,-116.69016810,32.72578492,224.00,0.00000,0.00000,0.00000
1.10,-116.69016810,32.72578492,224.00,0.00000,0.00000,0.00000
1.10,-116.69016810,32.72578492,224.00,0.00000,0.00000,0.00000
1.10,-116.69016810,32.72578492,224.00,0.00000,0.00000,0.00000
1.10,-116.69016810,32.72578492,224.00,0.00000,0.00000,0.00000
1.10,-116.69016810,32.72578492,224.00,0.00000,0.00000,0.00000
1.10,-116.68183908,32.72865952,94.00,0.00000,0.00000,0.00000
1.10,-116.68183908,32.72865952,94.00,0.00000,0.00000,0.00000
1.10,-116.68183908,32.72865952,94.00,0.00000,0.00000,0.00000
1.10,-116.68183908,32.72865952,94.00,0.00000,0.00000,0.00000
1.10,-116.68183908,32.72865952,94.00,0.00000,0.00000,0.00000
1.10,-116.68183908,32.72865952,94.00,0.00000,0.00000,0.00000
1.10,-116.68482898,32.72704256,-96.00,0.00000,0.00000,0.00000
1.10,-116.68482898,32.72704256,-96.00,0.00000,0.00000,0.00000
1.10,-116.68482898,32.72704256,-96.00,0.00000,0.00000,0.00000
1.10,-116.68482898,32.72704256,-96.00,0.00000,0.00000,0.00000
1.10,-116.68482898,32.72704256,-96.00,0.00000,0.00000,0.00000
1.10,-116.68482898,32.72704256,-96.00,0.00000,0.00000,0.00000
1.10,-116.68301368,32.72641374,524.00,0.00000,0.00000,0.00000
1.10,-116.68301368,32.72641374,524.00,0.00000,0.00000,0.00000
1.10,-116.68301368,32.72641374,524.00,0.00000,0.00000,0.00000
1.10,-116.68301368,32.72641374,524.00,0.00000,0.00000,0.00000
1.10,-116.68301368,32.72641374,524.00,0.00000,0.00000,0.00000
1.10,-116.68301368,32.72641374,524.00,0.00000,0.00000,0.00000
1.20,-116.68546968,32.72731205,354.00,0.00000,0.00000,0.00000
1.20,-116.68546968,32.72731205,354.00,0.00000,0.00000,0.00000
1.20,-116.68546968,32.72731205,354.00,0.00000,0.00000,0.00000
1.20,-116.68546968,32.72731205,354.00,0.00000,0.00000,0.00000
1.20,-116.68546968,32.72731205,354.00,0.00000,0.00000,0.00000
1.20,-116.68546968,32.72731205,354.00,0.00000,0.00000,0.00000
1.20,-116.69027488,32.72569509,234.00,0.00000,0.00000,0.00000
1.20,-116.69027488,32.72569509,234.00,0.00000,0.00000,0.00000
1.20,-116.69027488,32.72569509,234.00,0.00000,0.00000,0.00000
1.20,-116.69027488,32.72569509,234.00,0.00000,0.00000,0.00000
1.20,-116.69027488,32.72569509,234.00,0.00000,0.00000,0.00000
1.20,-116.69027488,32.72569509,234.00,0.00000,0.00000,0.00000
1.20,-116.68205264,32.72865952,94.00,0.00000,0.00000,0.00000
1.20,-116.68205264,32.72865952,94.00,0.00000,0.00000,0.00000
1.20,-116.68205264,32.72865952,94.00,0.00000,0.00000,0.00000
1.20,-116.68205264,32.72865952,94.00,0.00000,0.00000,0.00000
1.20,-116.68205264,32.72865952,94.00,0.00000,0.00000,0.00000
1.20,-116.68205264,32.72865952,94.00,0.00000,0.00000,0.00000
1.20,-116.68493576,32.72686290,-76.00,0.00000,0.00000,0.00000
1.20,-116.68493576,32.72686290,-76.00,0.00000,0.00000,0.00000
1.20,-116.68493576,32.72686290,-76.00,0.00000,0.00000,0.00000
1.20,-116.68493576,32.72686290,-76.00,0.00000,0.00000,0.00000
1.20,-116.68493576,32.72686290,-76.00,0.00000,0.00000,0.00000
1.20,-116.68493576,32.72686290,-76.00,0.00000,0.00000,0.00000
1.20,-116.68312046,32.72632391,544.00,0.00000,0.00000,0.00000
1.20,-116.68312046,32.72632391,544.00,0.00000,0.00000,0.00000
1.20,-116.68312046,32.72632391,544.00,0.00000,0.00000,0.00000
1.20,-116.68312046,32.72632391,544.00,0.00000,0.00000,0.00000
1.20,-116.68312046,32.72632391,544.00,0.00000,0.00000,0.00000
1.20,-116.68312046,32.72632391,544.00,0.00000,0.00000,0.00000
1.30,-116.68557646,32.72740188,364.00,0.00000,0.00000,0.00000
1.30,-116.68557646,32.72740188,364.00,0.00000,0.00000,0.00000
1.30,-116.68557646,32.72740188,364.00,0.00000,0.00000,0.00000
1.30,-116.68557646,32.72740188,364.00,0.00000,0.00000,0.00000
1.30,-116.68557646,32.72740188,364.00,0.00000,0.00000,0.00000
1.30,-116.68557646,32.72740188,364.00,0.00000,0.00000,0.00000
1.30,-116.69048845,32.72560526,244.00,0.00000,0.00000,0.00000
1.30,-116.69048845,32.72560526,244.00,0.00000,0.00000,0.00000
1.30,-116.69048845,32.72560526,244.00,0.00000,0.00000,0.00000
1.30,-116.69048845,32.72560526,244.00,0.00000,0.00000,0.00000
1.30,-116.69048845,32.72560526,244.00,0.00000,0.00000,0.00000
1.30,-116.69048845,32.72560526,244.00,0.00000,0.00000,0.00000
1.30,-116.68215942,32.72865952,94.00,0.00000,0.00000,0.00000
1.30,-116.68215942,32.72865952,94.00,0.00000,0.00000,0.00000
1.30,-116.68215942,32.72865952,94.00,0.00000,0.00000,0.00000
1.30,-116.68215942,32.72865952,94.00,0.00000,0.00000,0.00000
1.30,-116.68215942,32.72865952,94.00,0.00000,0.00000,0.00000
1.30,-116.68215942,32.72865952,94.00,0.00000,0.00000,0.00000
1.30,-116.68514933,32.72668323,-56.00,0.00000,0.00000,0.00000
1.30,-116.68514933,32.72668323,-56.00,0.00000,0.00000,0.00000
1.30,-116.68514933,32.72668323,-56.00,0.00000,0.00000,0.00000
1.30,-116.68514933,32.72668323,-56.00,0.00000,0.00000,0.00000
1.30,-116.68514933,32.72668323,-56.00,0.00000,0.00000,0.00000
1.30,-116.68514933,32.72668323,-56.00,0.00000,0.00000,0.00000
1.30,-116.68322725,32.72632391,554.00,0.00000,0.00000,0.00000
1.30,-116.68322725,32.72632391,554.00,0.00000,0.00000,0.00000
1.30,-116.68322725,32.72632391,554.00,0.00000,0.00000,0.00000
1.30,-116.68322725,32.72632391,554.00,0.00000,0.00000,0.00000
1.30,-116.68322725,32.72632391,554.00,0.00000,0.00000,0.00000
1.30,-116.68322725,32.72632391,554.00,0.00000,0.00000,0.00000
1.40,-116.68568324,32.72740188,364.00,0.00000,0.00000,0.00000
1.40,-116.68568324,32.72740188,364.00,0.00000,0.00000,0.00000
1.40,-116.68568324,32.72740188,364.00,0.00000,0.00000,0.00000
1.40,-116.68568324,32.72740188,364.00,0.00000,0.00000,0.00000
1.40,-116.68568324,32.72740188,364.00,0.00000,0.00000,0.00000
1.40,-116.68568324,32.72740188,364.00,0.00000,0.00000,0.00000
1.40,-116.69059523,32.72551543,254.00,0.00000,0.00000,0.00000
1.40,-116.69059523,32.72551543,254.00,0.00000,0.00000,0.00000
1.40,-116.69059523,32.72551543,254.00,0.00000,0.00000,0.00000
1.40,-116.69059523,32.72551543,254.00,0.00000,0.00000,0.00000
1.40,-116.69059523,32.72551543,254.00,0.00000,0.00000,0.00000
1.40,-116.69059523,32.72551543,254.00,0.00000,0.00000,0.00000
1.40,-116.68237299,32.72865952,84.00,0.00000,0.00000,0.00000
1.40,-116.68237299,32.72865952,84.00,0.00000,0.00000,0.00000
1.40,-116.68237299,32.72865952,84.00,0.00000,0.00000,0.00000
1.40,-116.68237299,32.72865952,84.00,0.00000,0.00000,0.00000
1.40,-116.68237299,32.72865952,84.00,0.00000,0.00000,0.00000
1.40,-116.68237299,32.72865952,84.00,0.00000,0.00000,0.00000
1.40,-116.68525611,32.72659340,-36.00,0.00000,0.00000,0.00000
1.40,-116.68525611,32.72659340,-36.00,0.00000,0.00000,0.00000
1.40,-116.68525611,32.72659340,-36.00,0.00000,0.00000,0.00000
1.40,-116.68525611,32.72659340,-36.00,0.00000,0.00000,0.00000
1.40,-116.68525611,32.72659340,-36.00,0.00000,0.00000,0.00000
1.40,-116.68525611,32.72659340,-36.00,0.00000,0.00000,0.00000
1.40,-116.68344081,32.72632391,564.00,0.00000,0.00000,0.00000
1.40,-116.68344081,32.72632391,564.00,0.00000,0.00000,0.00000
1.40,-116.68344081,32.72632391,564.00,0.00000,0.00000,0.00000
1.40,-116.68344081,32.72632391,564.00,0.00000,0.00000,0.00000
1.40,-116.68344081,32.72632391,564.00,0.00000,0.00000,0.00000
1.40,-116.68344081,32.72632391,564.00,0.00000,0.00000,0.00000
1.50,-116.68579002,32.72749171,374.00,0.00000,0.00000,0.00000
1.50,-116.68579002,32.72749171,374.00,0.00000,0.00000,0.00000
1.50,-116.68579002,32.72749171,374.00,0.00000,0.00000,0.00000
1.50,-116.68579002,32.72749171,374.00,0.00000,0.00000,0.00000
1.50,-116.68579002,32.72749171,374.00,0.00000,0.00000,0.00000
1.50,-116.68579002,32.72749171,374.00,0.00000,0.00000,0.00000
1.50,-116.69070201,32.72542560,264.00,0.00000,0.00000,0.00000
1.50,-116.69070201,32.72542560,264.00,0.00000,0.00000,0.00000
1.50,-116.69070201,32.72542560,264.00,0.00000,0.00000,0.00000
1.50,-116.69070201,32.72542560,264.00,0.00000,0.00000,0.00000
1.50,-116.69070201,32.72542560,264.00,0.00000,0.00000,0.00000
1.50,-116.69070201,32.72542560,264.00,0.00000,0.00000,0.00000
1.50,-116.68247977,32.72865952,84.00,0.00000,0.00000,0.00000
1.50,-116.68247977,32.72865952,84.00,0.00000,0.00000,0.00000
1.50,-116.68247977,32.72865952,84.00,0.00000,0.00000,0.00000
1.50,-116.68247977,32.72865952,84.00,0.00000,0.00000,0.00000
1.50,-116.68247977,32.72865952,84.00,0.00000,0.00000,0.00000
1.50,-116.68247977,32.72865952,84.00,0.00000,0.00000,0.00000
1.50,-116.68546968,32.72641374,-16.00,0.00000,0.00000,0.00000
1.50,-116.68546968,32.72641374,-16.00,0.00000,0.00000,0.00000
1.50,-116.68546968,32.72641374,-16.00,0.00000,0.00000,0.00000
1.50,-116.68546968,32.72641374,-16.00,0.00000,0.00000,0.00000
1.50,-116.68546968,32.72641374,-16.00,0.00000,0.00000,0.00000
1.50,-116.68546968,32.72641374,-16.00,0.00000,0.00000,0.00000
1.50,-116.68354759,32.72632391,584.00,0.00000,0.00000,0.00000
1.50,-116.68354759,32.72632391,584.00,0.00000,0.00000,0.00000
1.50,-116.68354759,32.72632391,584.00,0.00000,0.00000,0.00000
1.50,-116.68354759,32.72632391,584.00,0.00000,0.00000,0.00000
1.50,-116.68354759,32.72632391,584.00,0.00000,0.00000,0.00000
1.50,-116.68354759,32.72632391,584.00,0.00000,0.00000,0.00000
1.60,-116.68589681,32.72749171,374.00,0.00000,0.00000,0.00000
1.60,-116.68589681,32.72749171,374.00,0.00000,0.00000,0.00000
1.60,-116.68589681,32.72749171,374.00,0.00000,0.00000,0.00000
1.60,-116.68589681,32.72749171,374.00,0.00000,0.00000,0.00000
1.60,-116.68589681,32.72749171,374.00,0.00000,0.00000,0.00000
1.60,-116.68589681,32.72749171,374.00,0.00000,0.00000,0.00000
1.60,-116.69080880,32.72533577,274.00,0.00000,0.00000,0.00000
1.60,-116.69080880,32.72533577,274.00,0.00000,0.00000,0.00000
1.60,-116.69080880,32.72533577,274.00,0.00000,0.00000,0.00000
1.60,-116.69080880,32.72533577,274.00,0.00000,0.00000,0.00000
1.60,-116.69080880,32.72533577,274.00,0.00000,0.00000,0.00000
1.60,-116.69080880,32.72533577,274.00,0.00000,0.00000,0.00000
1.60,-116.68269333,32.72865952,84.00,0.00000,0.00000,0.00000
1.60,-116.68269333,32.72865952,84.00,0.00000,0.00000,0.00000
1.60,-116.68269333,32.72865952,84.00,0.00000,0.00000,0.00000
1.60,-116.68269333,32.72865952,84.00,0.00000,0.00000,0.00000
1.60,-116.68269333,32.72865952,84.00,0.00000,0.00000,0.00000
1.60,-116.68269333,32.72865952,84.00,0.00000,0.00000,0.00000
1.60,-116.68557646,32.72623408,4.00,0.00000,0.00000,0.00000
1.60,-116.68557646,32.72623408,4.00,0.00000,0.00000,0.00000
1.60,-116.68557646,32.72623408,4.00,0.00000,0.00000,0.00000
1.60,-116.68557646,32.72623408,4.00,0.00000,0.00000,0.00000
1.60,-116.68557646,32.72623408,4.00,0.00000,0.00000,0.00000
1.60,-116.68557646,32.72623408,4.00,0.00000,0.00000,0.00000
1.60,-116.68365438,32.72632391,594.00,0.00000,0.00000,0.00000
1.60,-116.68365438,32.72632391,594.00,0.00000,0.00000,0.00000
1.60,-116.68365438,32.72632391,594.00,0.00000,0.00000,0.00000
1.60,-116.68365438,32.72632391,594.00,0.00000,0.00000,0.00000
1.60,-116.68365438,32.72632391,594.00,0.00000,0.00000,0.00000
1.60,-116.68365438,32.72632391,594.00,0.00000,0.00000,0.00000
1.70,-116.68600359,32.72749171,384.00,0.00000,0.00000,0.00000
1.70,-116.68600359,32.72749171,384.00,0.00000,0.00000,0.00000
1.70,-116.68600359,32.72749171,384.00,0.00000,0.00000,0.00000
1.70,-116.68600359,32.72749171,384.00,0.00000,0.00000,0.00000
1.70,-116.68600359,32.72749171,384.00,0.00000,0.00000,0.00000
1.70,-116.68600359,32.72749171,384.00,0.00000,0.00000,0.00000
1.70,-116.69102236,32.72524594,294.00,0.00000,0.00000,0.00000
1.70,-116.69102236,32.72524594,294.00,0.00000,0.00000,0.00000
1.70,-116.69102236,32.72524594,294.00,0.00000,0.00000,0.00000
1.70,-116.69102236,32.72524594,294.00,0.00000,0.00000,0.00000
1.70,-116.69102236,32.72524594,294.00,0.00000,0.00000,0.00000
1.70,-116.69102236,32.72524594,294.00,0.00000,0.00000,0.00000
1.70,-116.68290690,32.72865952,84.00,0.00000,0.00000,0.00000
1.70,-116.68290690,32.72865952,84.00,0.00000,0.00000,0.00000
1.70,-116.68290690,32.72865952,84.00,0.00000,0.00000,0.00000
1.70,-116.68290690,32.72865952,84.00,0.00000,0.00000,0.00000
1.70,-116.68290690,32.72865952,84.00,0.00000,0.00000,0.00000
1.70,-116.68290690,32.72865952,84.00,0.00000,0.00000,0.00000
1.70,-116.68579002,32.72605442,24.00,0.00000,0.00000,0.00000
1.70,-116.68579002,32.72605442,24.00,0.00000,0.00000,0.00000
1.70,-116.68579002,32.72605442,24.00,0.00000,0.00000,0.00000
1.70,-116.68579002,32.72605442,24.00,0.00000,0.00000,0.00000
1.70,-116.68579002,32.72605442,24.00,0.00000,0.00000,0.00000
1.70,-116.68579002,32.72605442,24.00,0.00000,0.00000,0.00000
1.70,-116.68386794,32.72632391,604.00,0.00000,0.00000,0.00000
1.70,-116.68386794,32.72632391,604.00,0.00000,0.00000,0.00000
1.70,-116.68386794,32.72632391,604.00,0.00000,0.00000,0.00000
1.70,-116.68386794,32.72632391,604.00,0.00000,0.00000,0.00000
1.70,-116.68386794,32.72632391,604.00,0.00000,0.00000,0.00000
1.70,-116.68386794,32.72632391,604.00,0.00000,0.00000,0.00000
1.80,-116.68611037,32.72758154,394.00,0.00000,0.00000,0.00000
1.80,-116.68611037,32.72758154,394.00,0.00000,0.00000,0.00000
1.80,-116.68611037,32.72758154,394.00,0.00000,0.00000,0.00000
1.80,-116.68611037,32.72758154,394.00,0.00000,0.00000,0.00000
1.80,-116.68611037,32.72758154,394.00,0.00000,0.00000,0.00000
1.80,-116.68611037,32.72758154,394.00,0.00000,0.00000,0.00000
1.80,-116.69112914,32.72515610,304.00,0.00000,0.00000,0.00000
1.80,-116.69112914,32.72515610,304.00,0.00000,0.00000,0.00000
1.80,-116.69112914,32.72515610,304.00,0.00000,0.00000,0.00000
1.80,-116.69112914,32.72515610,304.00,0.00000,0.00000,0.00000
1.80,-116.69112914,32.72515610,304.00,0.00000,0.00000,0.00000
1.80,-116.69112914,32.72515610,304.00,0.00000,0.00000,0.00000
1.80,-116.68301368,32.72874935,74.00,0.00000,0.00000,0.00000
1.80,-116.68301368,32.72874935,74.00,0.00000,0.00000,0.00000
1.80,-116.68301368,32.72874935,74.00,0.00000,0.00000,0.00000
1.80,-116.68301368,32.72874935,74.00,0.00000,0.00000,0.00000
1.80,-116.68301368,32.72874935,74.00,0.00000,0.00000,0.00000
1.80,-116.68301368,32.72874935,74.00,0.00000,0.00000,0.00000
1.80,-116.68589681,32.72587475,44.00,0.00000,0.00000,0.00000
1.80,-116.68589681,32.72587475,44.00,0.00000,0.00000,0.00000
1.80,-116.68589681,32.72587475,44.00,0.00000,0.00000,0.00000
1.80,-116.68589681,32.72587475,44.00,0.00000,0.00000,0.00000
1.80,-116.68589681,32.72587475,44.00,0.00000,0.00000,0.00000
1.80,-116.68589681,32.72587475,44.00,0.00000,0.00000,0.00000
1.80,-116.68397472,32.72632391,624.00,0.00000,0.00000,0.00000
1.80,-116.68397472,32.72632391,624.00,0.00000,0.00000,0.00000
1.80,-116.68397472,32.72632391,624.00,0.00000,0.00000,0.00000
1.80,-116.68397472,32.72632391,624.00,0.00000,0.00000,0.00000
1.80,-116.68397472,32.72632391,624.00,0.00000,0.00000,0.00000
1.80,-116.68397472,32.72632391,624.00,0.00000,0.00000,0.00000
1.90,-116.68621715,32.72758154,394.00,0.00000,0.00000,0.00000
1.90,-116.68621715,32.72758154,394.00,0.00000,0.00000,0.00000
1.90,-116.68621715,32.72758154,394.00,0.00000,0.00000,0.00000
1.90,-116.68621715,32.72758154,394.00,0.00000,0.00000,0.00000
1.90,-116.68621715,32.72758154,394.00,0.00000,0.00000,0.00000
1.90,-116.68621715,32.72758154,394.00,0.00000,0.00000,0.00000
1.90,-116.69123593,32.72506627,314.00,0.00000,0.00000,0.00000
1.90,-116.69123593,32.72506627,314.00,0.00000,0.00000,0.00000
1.90,-116.69123593,32.72506627,314.00,0.00000,0.00000,0.00000
1.90,-116.69123593,32.72506627,314.00,0.00000,0.00000,0.00000
1.90,-116.69123593,32.72506627,314.00,0.00000,0.00000,0.00000
1.90,-116.69123593,32.72506627,314.00,0.00000,0.00000,0.00000
1.90,-116.68322725,32.72874935,74.00,0.00000,0.00000,0.00000
1.90,-116.68322725,32.72874935,74.00,0.00000,0.00000,0.00000
1.90,-116.68322725,32.72874935,74.00,0.00000,0.00000,0.00000
1.90,-116.68322725,32.72874935,74.00,0.00000,0.00000,0.00000
1.90,-116.68322725,32.72874935,74.00,0.00000,0.00000,0.00000
1.90,-116.68322725,32.72874935,74.00,0.00000,0.00000,0.00000
1.90,-116.68611037,32.72569509,64.00,0.00000,0.00000,0.00000
1.90,-116.68611037,32.72569509,64.00,0.00000,0.00000,0.00000
1.90,-116.68611037,32.72569509,64.00,0.00000,0.00000,0.00000
1.90,-116.68611037,32.72569509,64.00,0.00000,0.00000,0.00000
1.90,-116.68611037,32.72569509,64.00,0.00000,0.00000,0.00000
1.90,-116.68611037,32.72569509,64.00,0.00000,0.00000,0.00000
1.90,-116.68408151,32.72623408,634.00,0.00000,0.00000,0.00000
1.90,-116.68408151,32.72623408,634.00,0.00000,0.00000,0.00000
1.90,-116.68408151,32.72623408,634.00,0.00000,0.00000,0.00000
1.90,-116.68408151,32.72623408,634.00,0.00000,0.00000,0.00000
1.90,-116.68408151,32.72623408,634.00,0.00000,0.00000,0.00000
1.90,-116.68408151,32.72623408,634.00,0.00000,0.00000,0.00000
2.00,-116.68632394,32.72767138,404.00,0.00000,0.00000,0.00000
2.00,-116.68632394,32.72767138,404.00,0.00000,0.00000,0.00000
2.00,-116.68632394,32.72767138,404.00,0.00000,0.00000,0.00000
2.00,-116.68632394,32.72767138,404.00,0.00000,0.00000,0.00000
2.00,-116.68632394,32.72767138,404.00,0.00000,0.00000,0.00000
2.00,-116.68632394,32.72767138,404.00,0.00000,0.00000,0.00000
2.00,-116.69134271,32.72497644,324.00,0.00000,0.00000,0.00000
2.00,-116.69134271,32.72497644,324.00,0.00000,0.00000,0.00000
2.00,-116.69134271,32.72497644,324.00,0.00000,0.00000,0.00000
2.00,-116.69134271,32.72497644,324.00,0.00000,0.00000,0.00000
2.00,-116.69134271,32.72497644,324.00,0.00000,0.00000,0.00000
2.00,-116.69134271,32.72497644,324.00,0.00000,0.00000,0.00000
2.00,-116.68333403,32.72874935,74.00,0.00000,0.00000,0.00000
2.00,-116.68333403,32.72874935,74.00,0.00000,0.00000,0.00000
2.00,-116.68333403,32.72874935,74.00,0.00000,0.00000,0.00000
2.00,-116.68333403,32.72874935,74.00,0.00000,0.00000,0.00000
2.00,-116.68333403,32.72874935,74.00,0.00000,0.00000,0.00000
2.00,-116.68333403,32.72874935,74.00,0.00000,0.00000,0.00000
2.00,-116.68621715,32.72560526,84.00,0.00000,0.00000,0.00000
2.00,-116.68621715,32.72560526,84.00,0.00000,0.00000,0.00000
2.00,-116.68621715,32.72560526,84.00,0.00000,0.00000,0.00000
2.00,-116.68621715,32.72560526,84.00,0.00000,0.00000,0.00000
2.00,-116.68621715,32.72560526,84.00,0.00000,0.00000,0.00000
2.00,-116.68621715,32.72560526,84.00,0.00000,0.00000,0.00000
2.00,-116.68429507,32.72623408,644.00,0.00000,0.00000,0.00000
2.00,-116.68429507,32.72623408,644.00,0.00000,0.00000,0.00000
2.00,-116.68429507,32.72623408,644.00,0.00000,0.00000,0.00000
2.00,-116.68429507,32.72623408,644.00,0.00000,0.00000,0.00000
2.00,-116.68429507,32.72623408,644.00,0.00000,0.00000,0.00000
2.00,-116.68429507,32.72623408,644.00,0.00000,0.00000,0.00000
2.10,-116.68643072,32.72767138,404.00,0.00000,0.00000,0.00000
2.10,-116.68643072,32.72767138,404.00,0.00000,0.00000,0.00000
2.10,-116.68643072,32.72767138,404.00,0.00000,0.00000,0.00000
2.10,-116.68643072,32.72767138,404.00,0.00000,0.00000,0.00000
2.10,-116.68643072,32.72767138,404.00,0.00000,0.00000,0.00000
2.10,-116.68643072,32.72767138,404.00,0.00000,0.00000,0.00000
2.10,-116.69155627,32.72497644,334.00,0.00000,0.00000,0.00000
2.10,-116.69155627,32.72497644,334.00,0.00000,0.00000,0.00000
2.10,-116.69155627,32.72497644,334.00,0.00000,0.00000,0.00000
2.10,-116.69155627,32.72497644,334.00,0.00000,0.00000,0.00000
2.10,-116.69155627,32.72497644,334.00,0.00000,0.00000,0.00000
2.10,-116.69155627,32.72497644,334.00,0.00000,0.00000,0.00000
2.10,-116.68354759,32.72874935,74.00,0.00000,0.00000,0.00000
2.10,-116.68354759,32.72874935,74.00,0.00000,0.00000,0.00000
2.10,-116.68354759,32.72874935,74.00,0.00000,0.00000,0.00000
2.10,-116.68354759,32.72874935,74.00,0.00000,0.00000,0.00000
2.10,-116.68354759,32.72874935,74.00,0.00000,0.00000,0.00000
2.10,-116.68354759,32.72874935,74.00,0.00000,0.00000,0.00000
2.10,-116.68632394,32.72542560,104.00,0.00000,0.00000,0.00000
2.10,-116.68632394,32.72542560,104.00,0.00000,0.00000,0.00000
2.10,-116.68632394,32.72542560,104.00,0.00000,0.00000,0.00000
2.10,-116.68632394,32.72542560,104.00,0.00000,0.00000,0.00000
2.10,-116.68632394,32.72542560,104.00,0.00000,0.00000,0.00000
2.10,-116.68632394,32.72542560,104.00,0.00000,0.00000,0.00000
2.10,-116.68440185,32.72623408,664.00,0.00000,0.00000,0.00000
2.10,-116.68440185,32.72623408,664.00,0.00000,0.00000,0.00000
2.10,-116.68440185,32.72623408,664.00,0.00000,0.00000,0.00000
2.10,-116.68440185,32.72623408,664.00,0.00000,0.00000,0.00000
2.10,-116.68440185,32.72623408,664.00,0.00000,0.00000,0.00000
2.10,-116.68440185,32.72623408,664.00,0.00000,0.00000,0.00000
2.20,-116.68653750,32.72767138,414.00,0.00000,0.00000,0.00000
2.20,-116.68653750,32.72767138,414.00,0.00000,0.00000,0.00000
2.20,-116.68653750,32.72767138,414.00,0.00000,0.00000,0.00000
2.20,-116.68653750,32.72767138,414.00,0.00000,0.00000,0.00000
2.20,-116.68653750,32.72767138,414.00,0.00000,0.00000,0.00000
2.20,-116.68653750,32.72767138,414.00,0.00000,0.00000,0.00000
2.20,-116.69166306,32.72488661,344.00,0.00000,0.00000,0.00000
2.20,-116.69166306,32.72488661,344.00,0.00000,0.00000,0.00000
2.20,-116.69166306,32.72488661,344.00,0.00000,0.00000,0.00000
2.20,-116.69166306,32.72488661,344.00,0.00000,0.00000,0.00000
2.20,-116.69166306,32.72488661,344.00,0.00000,0.00000,0.00000
2.20,-116.69166306,32.72488661,344.00,0.00000,0.00000,0.00000
2.20,-116.68376116,32.72874935,64.00,0.00000,0.00000,0.00000
2.20,-116.68376116,32.72874935,64.00,0.00000,0.00000,0.00000
2.20,-116.68376116,32.72874935,64.00,0.00000,0.00000,0.00000
2.20,-116.68376116,32.72874935,64.00,0.00000,0.00000,0.00000
2.20,-116.68376116,32.72874935,64.00,0.00000,0.00000,0.00000
2.20,-116.68376116,32.72874935,64.00,0.00000,0.00000,0.00000
2.20,-116.68653750,32.72524594,124.00,0.00000,0.00000,0.00000
2.20,-116.68653750,32.72524594,124.00,0.00000,0.00000,0.00000
2.20,-116.68653750,32.72524594,124.00,0.00000,0.00000,0.00000
2.20,-116.68653750,32.72524594,124.00,0.00000,0.00000,0.00000
2.20,-116.68653750,32.72524594,124.00,0.00000,0.00000,0.00000
2.20,-116.68653750,32.72524594,124.00,0.00000,0.00000,0.00000
2.20,-116.68461542,32.72623408,674.00,0.00000,0.00000,0.00000
2.20,-116.68461542,32.72623408,674.00,0.00000,0.00000,0.00000
2.20,-116.68461542,32.72623408,674.00,0.00000,0.00000,0.00000
2.20,-116.68461542,32.72623408,674.00,0.00000,0.00000,0.00000
2.20,-116.68461542,32.72623408,674.00,0.00000,0.00000,0.00000
2.20,-116.68461542,32.72623408,674.00,0.00000,0.00000,0.00000
2.30,-116.68664428,32.72776121,424.00,0.00000,0.00000,0.00000
2.30,-116.68664428,32.72776121,424.00,0.00000,0.00000,0.00000
2.30,-116.68664428,32.72776121,424.00,0.00000,0.00000,0.00000
2.30,-116.68664428,32.72776121,424.00,0.00000,0.00000,0.00000
2.30,-116.68664428,32.72776121,424.00,0.00000,0.00000,0.00000
2.30,-116.68664428,32.72776121,424.00,0.00000,0.00000,0.00000
2.30,-116.69176984,32.72479678,354.00,0.00000,0.00000,0.00000
2.30,-116.69176984,32.72479678,354.00,0.00000,0.00000,0.00000
2.30,-116.69176984,32.72479678,354.00,0.00000,0.00000,0.00000
2.30,-116.69176984,32.72479678,354.00,0.00000,0.00000,0.00000
2.30,-116.69176984,32.72479678,354.00,0.00000,0.00000,0.00000
2.30,-116.69176984,32.72479678,354.00,0.00000,0.00000,0.00000
2.30,-116.68386794,32.72874935,64.00,0.00000,0.00000,0.00000
2.30,-116.68386794,32.72874935,64.00,0.00000,0.00000,0.00000
2.30,-116.68386794,32.72874935,64.00,0.00000,0.00000,0.00000
2.30,-116.68386794,32.72874935,64.00,0.00000,0.00000,0.00000
2.30,-116.68386794,32.72874935,64.00,0.00000,0.00000,0.00000
2.30,-116.68386794,32.72874935,64.00,0.00000,0.00000,0.00000
2.30,-116.68664428,32.72506627,144.00,0.00000,0.00000,0.00000
2.30,-116.68664428,32.72506627,144.00,0.00000,0.00000,0.00000
2.30,-116.68664428,32.72506627,144.00,0.00000,0.00000,0.00000
2.30,-116.68664428,32.72506627,144.00,0.00000,0.00000,0.00000
2.30,-116.68664428,32.72506627,144.00,0.00000,0.00000,0.00000
2.30,-116.68664428,32.72506627,144.00,0.00000,0.00000,0.00000
2.30,-116.68472220,32.72623408,684.00,0.00000,0.00000,0.00000
2.30,-116.68472220,32.72623408,684.00,0.00000,0.00000,0.00000
2.30,-116.68472220,32.72623408,684.00,0.00000,0.00000,0.00000
2.30,-116.68472220,32.72623408,684.00,0.00000,0.00000,0.00000
2.30,-116.68472220,32.72623408,684.00,0.00000,0.00000,0.00000
2.30,-116.68472220,32.72623408,684.00,0.00000,0.00000,0.00000
2.40,-116.68675107,32.72776121,424.00,0.00000,0.00000,0.00000
2.40,-116.68675107,32.72776121,424.00,0.00000,0.00000,0.00000
2.40,-116.68675107,32.72776121,424.00,0.00000,0.00000,0.00000
2.40,-116.68675107,32.72776121,424.00,0.00000,0.00000,0.00000
2.40,-116.68675107,32.72776121,424.00,0.00000,0.00000,0.00000
2.40,-116.68675107,32.72776121,424.00,0.00000,0.00000,0.00000
2.40,-116.69187662,32.72470695,364.00,0.00000,0.00000,0.00000
2.40,-116.69187662,32.72470695,364.00,0.00000,0.00000,0.00000
2.40,-116.69187662,32.72470695,364.00,0.00000,0.00000,0.00000
2.40,-116.69187662,32.72470695,364.00,0.00000,0.00000,0.00000
2.40,-116.69187662,32.72470695,364.00,0.00000,0.00000,0.00000
2.40,-116.69187662,32.72470695,364.00,0.00000,0.00000,0.00000
2.40,-116.68408151,32.72874935,64.00,0.00000,0.00000,0.00000
2.40,-116.68408151,32.72874935,64.00,0.00000,0.00000,0.00000
2.40,-116.68408151,32.72874935,64.00,0.00000,0.00000,0.00000
2.40,-116.68408151,32.72874935,64.00,0.00000,0.00000,0.00000
2.40,-116.68408151,32.72874935,64.00,0.00000,0.00000,0.00000
2.40,-116.68408151,32.72874935,64.00,0.00000,0.00000,0.00000
2.40,-116.68685785,32.72488661,164.00,0.00000,0.00000,0.00000
2.40,-116.68685785,32.72488661,164.00,0.00000,0.00000,0.00000
2.40,-116.68685785,32.72488661,164.00,0.00000,0.00000,0.00000
2.40,-116.68685785,32.72488661,164.00,0.00000,0.00000,0.00000
2.40,-116.68685785,32.72488661,164.00,0.00000,0.00000,0.00000
2.40,-116.68685785,32.72488661,164.00,0.00000,0.00000,0.00000
2.40,-116.68482898,32.72623408,704.00,0.00000,0.00000,0.00000
2.40,-116.68482898,32.72623408,704.00,0.00000,0.00000,0.00000
2.40,-116.68482898,32.72623408,704.00,0.00000,0.00000,0.00000
2.40,-116.68482898,32.72623408,704.00,0.00000,0.00000,0.00000
2.40,-116.68482898,32.72623408,704.00,0.00000,0.00000,0.00000
2.40,-116.68482898,32.72623408,704.00,0.00000,0.00000,0.00000
2.50,-116.68685785,32.72776121,434.00,0.00000,0.00000,0.00000
2.50,-116.68685785,32.72776121,434.00,0.00000,0.00000,0.00000
2.50,-116.68685785,32.72776121,434.00,0.00000,0.00000,0.00000
2.50,-116.68685785,32.72776121,434.00,0.00000,0.00000,0.00000
2.50,-116.68685785,32.72776121,434.00,0.00000,0.00000,0.00000
2.50,-116.68685785,32.72776121,434.00,0.00000,0.00000,0.00000
2.50,-116.69209019,32.72461712,374.00,0.00000,0.00000,0.00000
2.50,-116.69209019,32.72461712,374.00,0.00000,0.00000,0.00000
2.50,-116.69209019,32.72461712,374.00,0.00000,0.00000,0.00000
2.50,-116.69209019,32.72461712,374.00,0.00000,0.00000,0.00000
2.50,-116.69209019,32.72461712,374.00,0.00000,0.00000,0.00000
2.50,-116.69209019,32.72461712,374.00,0.00000,0.00000,0.00000
2.50,-116.68418829,32.72874935,54.00,0.00000,0.00000,0.00000
2.50,-116.68418829,32.72874935,54.00,0.00000,0.00000,0.00000
2.50,-116.68418829,32.72874935,54.00,0.00000,0.00000,0.00000
2.50,-116.68418829,32.72874935,54.00,0.00000,0.00000,0.00000
2.50,-116.68418829,32.72874935,54.00,0.00000,0.00000,0.00000
2.50,-116.68418829,32.72874935,54.00,0.00000,0.00000,0.00000
2.50,-116.68696463,32.72470695,174.00,0.00000,0.00000,0.00000
2.50,-116.68696463,32.72470695,174.00,0.00000,0.00000,0.00000
2.50,-116.68696463,32.72470695,174.00,0.00000,0.00000,0.00000
2.50,-116.68696463,32.72470695,174.00,0.00000,0.00000,0.00000
2.50,-116.68696463,32.72470695,174.00,0.00000,0.00000,0.00000
2.50,-116.68696463,32.72470695,174.00,0.00000,0.00000,0.00000
2.50,-116.68504255,32.72623408,714.00,0.00000,0.00000,0.00000
2.50,-116.68504255,32.72623408,714.00,0.00000,0.00000,0.00000
2.50,-116.68504255,32.72623408,714.00,0.00000,0.00000,0.00000
2.50,-116.68504255,32.72623408,714.00,0.00000,0.00000,0.00000
2.50,-116.68504255,32.72623408,714.00,0.00000,0.00000,0.00000
2.50,-116.68504255,32.72623408,714.00,0.00000,0.00000,0.00000
2.60,-116.68696463,32.72785104,444.00,0.00000,0.00000,0.00000
2.60,-116.68696463,32.72785104,444.00,0.00000,0.00000,0.00000
2.60,-116.68696463,32.72785104,444.00,0.00000,0.00000,0.00000
2.60,-116.68696463,32.72785104,444.00,0.00000,0.00000,0.00000
2.60,-116.68696463,32.72785104,444.00,0.00000,0.00000,0.00000
2.60,-116.68696463,32.72785104,444.00,0.00000,0.00000,0.00000
2.60,-116.69219697,32.72452729,384.00,0.00000,0.00000,0.00000
2.60,-116.69219697,32.72452729,384.00,0.00000,0.00000,0.00000
2.60,-116.69219697,32.72452729,384.00,0.00000,0.00000,0.00000
2.60,-116.69219697,32.72452729,384.00,0.00000,0.00000,0.00000
2.60,-116.69219697,32.72452729,384.00,0.00000,0.00000,0.00000
2.60,-116.69219697,32.72452729,384.00,0.00000,0.00000,0.00000
2.60,-116.68440185,32.72874935,54.00,0.00000,0.00000,0.00000
2.60,-116.68440185,32.72874935,54.00,0.00000,0.00000,0.00000
2.60,-116.68440185,32.72874935,54.00,0.00000,0.00000,0.00000
2.60,-116.68440185,32.72874935,54.00,0.00000,0.00000,0.00000
2.60,-116.68440185,32.72874935,54.00,0.00000,0.00000,0.00000
2.60,-116.68440185,32.72874935,54.00,0.00000,0.00000,0.00000
2.60,-116.68717820,32.72461712,194.00,0.00000,0.00000,0.00000
2.60,-116.68717820,32.72461712,194.00,0.00000,0.00000,0.00000
2.60,-116.68717820,32.72461712,194.00,0.00000,0.00000,0.00000
2.60,-116.68717820,32.72461712,194.00,0.00000,0.00000,0.00000
2.60,-116.68717820,32.72461712,194.00,0.00000,0.00000,0.00000
2.60,-116.68717820,32.72461712,194.00,0.00000,0.00000,0.00000
2.60,-116.68514933,32.72614425,724.00,0.00000,0.00000,0.00000
2.60,-116.68514933,32.72614425,724.00,0.00000,0.00000,0.00000
2.60,-116.68514933,32.72614425,724.00,0.00000,0.00000,0.00000
2.60,-116.68514933,32.72614425,724.00,0.00000,0.00000,0.00000
2.60,-116.68514933,32.72614425,724.00,0.00000,0.00000,0.00000
2.60,-116.68514933,32.72614425,724.00,0.00000,0.00000,0.00000
2.70,-116.68707141,32.72785104,444.00,0.00000,0.00000,0.00000
2.70,-116.68707141,32.72785104,444.00,0.00000,0.00000,0.00000
2.70,-116.68707141,32.72785104,444.00,0.00000,0.00000,0.00000
2.70,-116.68707141,32.72785104,444.00,0.00000,0.00000,0.00000
2.70,-116.68707141,32.72785104,444.00,0.00000,0.00000,0.00000
2.70,-116.68707141,32.72785104,444.00,0.00000,0.00000,0.00000
2.70,-116.69230375,32.72443746,394.00,0.00000,0.00000,0.00000
2.70,-116.69230375,32.72443746,394.00,0.00000,0.00000,0.00000
2.70,-116.69230375,32.72443746,394.00,0.00000,0.00000,0.00000
2.70,-116.69230375,32.72443746,394.00,0.00000,0.00000,0.00000
2.70,-116.69230375,32.72443746,394.00,0.00000,0.00000,0.00000
2.70,-116.69230375,32.72443746,394.00,0.00000,0.00000,0.00000
2.70,-116.68461542,32.72874935,54.00,0.00000,0.00000,0.00000
2.70,-116.68461542,32.72874935,54.00,0.00000,0.00000,0.00000
2.70,-116.68461542,32.72874935,54.00,0.00000,0.00000,0.00000
2.70,-116.68461542,32.72874935,54.00,0.00000,0.00000,0.00000
2.70,-116.68461542,32.72874935,54.00,0.00000,0.00000,0.00000
2.70,-116.68461542,32.72874935,54.00,0.00000,0.00000,0.00000
2.70,-116.68728498,32.72443746,214.00,0.00000,0.00000,0.00000
2.70,-116.68728498,32.72443746,214.00,0.00000,0.00000,0.00000
2.70,-116.68728498,32.72443746,214.00,0.00000,0.00000,0.00000
2.70,-116.68728498,32.72443746,214.00,0.00000,0.00000,0.00000
2.70,-116.68728498,32.72443746,214.00,0.00000,0.00000,0.00000
2.70,-116.68728498,32.72443746,214.00,0.00000,0.00000,0.00000
2.70,-116.68525611,32.72614425,744.00,0.00000,0.00000,0.00000
2.70,-116.68525611,32.72614425,744.00,0.00000,0.00000,0.00000
2.70,-116.68525611,32.72614425,744.00,0.00000,0.00000,0.00000
2.70,-116.68525611,32.72614425,744.00,0.00000,0.00000,0.00000
2.70,-116.68525611,32.72614425,744.00,0.00000,0.00000,0.00000
2.70,-116.68525611,32.72614425,744.00,0.00000,0.00000,0.00000
2.80,-116.68717820,32.72794087,454.00,0.00000,0.00000,0.00000
2.80,-116.68717820,32.72794087,454.00,0.00000,0.00000,0.00000
2.80,-116.68717820,32.72794087,454.00,0.00000,0.00000,0.00000
2.80,-116.68717820,32.72794087,454.00,0.00000,0.00000,0.00000
2.80,-116.68717820,32.72794087,454.00,0.00000,0.00000,0.00000
2.80,-116.68717820,32.72794087,454.00,0.00000,0.00000,0.00000
2.80,-116.69251731,32.72434762,404.00,0.00000,0.00000,0.00000
2.80,-116.69251731,32.72434762,404.00,0.00000,0.00000,0.00000
2.80,-116.69251731,32.72434762,404.00,0.00000,0.00000,0.00000
2.80,-116.69251731,32.72434762,404.00,0.00000,0.00000,0.00000
2.80,-116.69251731,32.72434762,404.00,0.00000,0.00000,0.00000
2.80,-116.69251731,32.72434762,404.00,0.00000,0.00000,0.00000
2.80,-116.68472220,32.72883918,54.00,0.00000,0.00000,0.00000
2.80,-116.68472220,32.72883918,54.00,0.00000,0.00000,0.00000
2.80,-116.68472220,32.72883918,54.00,0.00000,0.00000,0.00000
2.80,-116.68472220,32.72883918,54.00,0.00000,0.00000,0.00000
2.80,-116.68472220,32.72883918,54.00,0.00000,0.00000,0.00000
2.80,-116.68472220,32.72883918,54.00,0.00000,0.00000,0.00000
2.80,-116.68749854,32.72425779,234.00,0.00000,0.00000,0.00000
2.80,-116.68749854,32.72425779,234.00,0.00000,0.00000,0.00000
2.80,-116.68749854,32.72425779,234.00,0.00000,0.00000,0.00000
2.80,-116.68749854,32.72425779,234.00,0.00000,0.00000,0.00000
2.80,-116.68749854,32.72425779,234.00,0.00000,0.00000,0.00000
2.80,-116.68749854,32.72425779,234.00,0.00000,0.00000,0.00000
2.80,-116.68546968,32.72614425,754.00,0.00000,0.00000,0.00000
2.80,-116.68546968,32.72614425,754.00,0.00000,0.00000,0.00000
2.80,-116.68546968,32.72614425,754.00,0.00000,0.00000,0.00000
2.80,-116.68546968,32.72614425,754.00,0.00000,0.00000,0.00000
2.80,-116.68546968,32.72614425,754.00,0.00000,0.00000,0.00000
2.80,-116.68546968,32.72614425,754.00,0.00000,0.00000,0.00000
2.90,-116.68728498,32.72794087,454.00,0.00000,0.00000,0.00000
2.90,-116.68728498,32.72794087,454.00,0.00000,0.00000,0.00000
2.90,-116.68728498,32.72794087,454.00,0.00000,0.00000,0.00000
2.90,-116.68728498,32.72794087,454.00,0.00000,0.00000,0.00000
2.90,-116.68728498,32.72794087,454.00,0.00000,0.00000,0.00000
2.90,-116.68728498,32.72794087,454.00,0.00000,0.00000,0.00000
2.90,-116.69262410,32.72425779,414.00,0.00000,0.00000,0.00000
2.90,-116.69262410,32.72425779,414.00,0.00000,0.00000,0.00000
2.90,-116.69262410,32.72425779,414.00,0.00000,0.00000,0.00000
2.90,-116.69262410,32.72425779,414.00,0.00000,0.00000,0.00000
2.90,-116.69262410,32.72425779,414.00,0.00000,0.00000,0.00000
2.90,-116.69262410,32.72425779,414.00,0.00000,0.00000,0.00000
2.90,-116.68493576,32.72883918,44.00,0.00000,0.00000,0.00000
2.90,-116.68493576,32.72883918,44.00,0.00000,0.00000,0.00000
2.90,-116.68493576,32.72883918,44.00,0.00000,0.00000,0.00000
2.90,-116.68493576,32.72883918,44.00,0.00000,0.00000,0.00000
2.90,-116.68493576,32.72883918,44.00,0.00000,0.00000,0.00000
2.90,-116.68493576,32.72883918,44.00,0.00000,0.00000,0.00000
2.90,-116.68760532,32.72407813,254.00,0.00000,0.00000,0.00000
2.90,-116.68760532,32.72407813,254.00,0.00000,0.00000,0.00000
2.90,-116.68760532,32.72407813,254.00,0.00000,0.00000,0.00000
2.90,-116.68760532,32.72407813,254.00,0.00000,0.00000,0.00000
2.90,-116.68760532,32.72407813,254.00,0.00000,0.00000,0.00000
2.90,-116.68760532,32.72407813,254.00,0.00000,0.00000,0.00000
2.90,-116.68557646,32.72614425,764.00,0.00000,0.00000,0.00000
2.90,-116.68557646,32.72614425,764.00,0.00000,0.00000,0.00000
2.90,-116.68557646,32.72614425,764.00,0.00000,0.00000,0.00000
2.90,-116.68557646,32.72614425,764.00,0.00000,0.00000,0.00000
2.90,-116.68557646,32.72614425,764.00,0.00000,0.00000,0.00000
2.90,-116.68557646,32.72614425,764.00,0.00000,0.00000,0.00000
3.00,-116.68739176,32.72794087,464.00,0.00000,0.00000,0.00000
3.00,-116.68739176,32.72794087,464.00,0.00000,0.00000,0.00000
3.00,-116.68739176,32.72794087,464.00,0.00000,0.00000,0.00000
3.00,-116.68739176,32.72794087,464.00,0.00000,0.00000,0.00000
3.00,-116.68739176,32.72794087,464.00,0.00000,0.00000,0.00000
3.00,-116.68739176,32.72794087,464.00,0.00000,0.00000,0.00000
3.00,-116.69273088,32.72416796,424.00,0.00000,0.00000,0.00000
3.00,-116.69273088,32.72416796,424.00,0.00000,0.00000,0.00000
3.00,-116.69273088,32.72416796,424.00,0.00000,0.00000,0.00000
3.00,-116.69273088,32.72416796,424.00,0.00000,0.00000,0.00000
3.00,-116.69273088,32.72416796,424.00,0.00000,0.00000,0.00000
3.00,-116.69273088,32.72416796,424.00,0.00000,0.00000,0.00000
3.00,-116.68504255,32.72883918,44.00,0.00000,0.00000,0.00000
3.00,-116.68504255,32.72883918,44.00,0.00000,0.00000,0.00000
3.00,-116.68504255,32.72883918,44.00,0.00000,0.00000,0.00000
3.00,-116.68504255,32.72883918,44.00,0.00000,0.00000,0.00000
3.00,-116.68504255,32.72883918,44.00,0.00000,0.00000,0.00000
3.00,-116.68504255,32.72883918,44.00,0.00000,0.00000,0.00000
3.00,-116.68781889,32.72389847,274.00,0.00000,0.00000,0.00000
3.00,-116.68781889,32.72389847,274.00,0.00000,0.00000,0.00000
3.00,-116.68781889,32.72389847,274.00,0.00000,0.00000,0.00000
3.00,-116.68781889,32.72389847,274.00,0.00000,0.00000,0.00000
3.00,-116.68781889,32.72389847,274.00,0.00000,0.00000,0.00000
3.00,-116.68781889,32.72389847,274.00,0.00000,0.00000,0.00000
3.00,-116.68568324,32.72614425,774.00,0.00000,0.00000,0.00000
3.00,-116.68568324,32.72614425,774.00,0.00000,0.00000,0.00000
3.00,-116.68568324,32.72614425,774.00,0.00000,0.00000,0.00000
3.00,-116.68568324,32.72614425,774.00,0.00000,0.00000,0.00000
3.00,-116.68568324,32.72614425,774.00,0.00000,0.00000,0.00000
3.00,-116.68568324,32.72614425,774.00,0.00000,0.00000,0.00000
3.10,-116.68749854,32.72803070,474.00,0.00000,0.00000,0.00000
3.10,-116.68749854,32.72803070,474.00,0.00000,0.00000,0.00000
3.10,-116.68749854,32.72803070,474.00,0.00000,0.00000,0.00000
3.10,-116.68749854,32.72803070,474.00,0.00000,0.00000,0.00000
3.10,-116.68749854,32.72803070,474.00,0.00000,0.00000,0.00000
3.10,-116.68749854,32.72803070,474.00,0.00000,0.00000,0.00000
3.10,-116.69283766,32.72407813,434.00,0.00000,0.00000,0.00000
3.10,-116.69283766,32.72407813,434.00,0.00000,0.00000,0.00000
3.10,-116.69283766,32.72407813,434.00,0.00000,0.00000,0.00000
3.10,-116.69283766,32.72407813,434.00,0.00000,0.00000,0.00000
3.10,-116.69283766,32.72407813,434.00,0.00000,0.00000,0.00000
3.10,-116.69283766,32.72407813,434.00,0.00000,0.00000,0.00000
3.10,-116.68525611,32.72883918,44.00,0.00000,0.00000,0.00000
3.10,-116.68525611,32.72883918,44.00,0.00000,0.00000,0.00000
3.10,-116.68525611,32.72883918,44.00,0.00000,0.00000,0.00000
3.10,-116.68525611,32.72883918,44.00,0.00000,0.00000,0.00000
3.10,-116.68525611,32.72883918,44.00,0.00000,0.00000,0.00000
3.10,-116.68525611,32.72883918,44.00,0.00000,0.00000,0.00000
3.10,-116.68792567,32.72371881,294.00,0.00000,0.00000,0.00000
3.10,-116.68792567,32.72371881,294.00,0.00000,0.00000,0.00000
3.10,-116.68792567,32.72371881,294.00,0.00000,0.00000,0.00000
3.10,-116.68792567,32.72371881,294.00,0.00000,0.00000,0.00000
3.10,-116.68792567,32.72371881,294.00,0.00000,0.00000,0.00000
3.10,-116.68792567,32.72371881,294.00,0.00000,0.00000,0.00000
3.10,-116.68589681,32.72614425,794.00,0.00000,0.00000,0.00000
3.10,-116.68589681,32.72614425,794.00,0.00000,0.00000,0.00000
3.10,-116.68589681,32.72614425,794.00,0.00000,0.00000,0.00000
3.10,-116.68589681,32.72614425,794.00,0.00000,0.00000,0.00000
3.10,-116.68589681,32.72614425,794.00,0.00000,0.00000,0.00000
3.10,-116.68589681,32.72614425,794.00,0.00000,0.00000,0.00000
3.20,-116.68760532,32.72803070,474.00,0.00000,0.00000,0.00000
3.20,-116.68760532,32.72803070,474.00,0.00000,0.00000,0.00000
3.20,-116.68760532,32.72803070,474.00,0.00000,0.00000,0.00000
3.20,-116.68760532,32.72803070,474.00,0.00000,0.00000,0.00000
3.20,-116.68760532,32.72803070,474.00,0.00000,0.00000,0.00000
3.20,-116.68760532,32.72803070,474.00,0.00000,0.00000,0.00000
3.20,-116.69305123,32.72398830,454.00,0.00000,0.00000,0.00000
3.20,-116.69305123,32.72398830,454.00,0.00000,0.00000,0.00000
3.20,-116.69305123,32.72398830,454.00,0.00000,0.00000,0.00000
3.20,-116.69305123,32.72398830,454.00,0.00000,0.00000,0.00000
3.20,-116.69305123,32.72398830,454.00,0.00000,0.00000,0.00000
3.20,-116.69305123,32.72398830,454.00,0.00000,0.00000,0.00000
3.20,-116.68546968,32.72883918,44.00,0.00000,0.00000,0.00000
3.20,-116.68546968,32.72883918,44.00,0.00000,0.00000,0.00000
3.20,-116.68546968,32.72883918,44.00,0.00000,0.00000,0.00000
3.20,-116.68546968,32.72883918,44.00,0.00000,0.00000,0.00000
3.20,-116.68546968,32.72883918,44.00,0.00000,0.00000,0.00000
3.20,-116.68546968,32.72883918,44.00,0.00000,0.00000,0.00000
